[
    {
        "address": "Ul. Kolejowa 6",
        "city": "Bełchatów",
        "country": "Polska",
        "description": "<p>Godziny otwarcia:</p><p>Pn-Sb: 09:00 - 21:00,</p><p>Nd: 10:00 - 20:00</p>",
        "id": 1,
        "lat": 51.3535395,
        "long": 19.375206,
        "name": "Bełchatów - Galeria Olimpia",
        "phone": "111 222 333",
        "postcode": "97-400",
        "status": true,
        "url": "https://fastwhitecat.com/"
    },
    {
        "address": "Ul. Zakopiańska 62",
        "city": "Kraków",
        "country": "Polska",
        "description": "",
        "id": 2,
        "lat": 50.01298,
        "long": 19.9284513,
        "name": "Krakow - C.H. Zakopianka",
        "phone": "111 222 333",
        "postcode": "30-418",
        "status": true,
        "url": "https://fastwhitecat.com/"
    },
    {
        "address": "Ul. Rybnicka 207",
        "city": "Gliwice",
        "country": "Polska",
        "description": "<p>Godziny otwarcia:</p><p>Pn-Sb: 07:00 - 21:00,</p><p>Nd: 9:00 - 17:00</p>",
        "id": 3,
        "lat": 50.2564661,
        "long": 18.6566091,
        "name": "Gliwice - C.H. Auchan",
        "phone": "111 222 333",
        "postcode": "44-122",
        "status": true,
        "url": "https://fastwhitecat.com/"
    },
    {
        "address": "Ul. Produkcyjna 84",
        "city": "Białystok",
        "country": "Polska",
        "description": "<p>Godziny otwarcia:</p><p>Pn-Sb: 09:00 - 21:00,</p><p>Nd: 9:00 - 20:00</p>",
        "id": 4,
        "lat": 53.161327,
        "long": 23.098291,
        "name": "Białystok - C.H. Auchan",
        "phone": "111 222 333",
        "postcode": "15-680",
        "status": true,
        "url": "https://fastwhitecat.com/"
    },
    {
        "address": "Ul. Stanisława Matyi 2",
        "city": "Poznań",
        "country": "Polska",
        "description": "<p>Godziny otwarcia:</p><p>Pn-Sb: 09:00 - 21:00,</p><p>Nd: 9:00 - 20:00</p>",
        "id": 5,
        "lat": 52.4021636,
        "long": 16.9139993,
        "name": "Poznań - C.H. Avenida",
        "phone": "111 222 333",
        "postcode": "60-084",
        "status": true,
        "url": "https://fastwhitecat.com/"
    },
    {
        "address": "Ul. Pojezierska 93",
        "city": "Łódź",
        "country": "Polska",
        "description": "",
        "id": 6,
        "lat": 51.8013802,
        "long": 19.4210655,
        "name": "Łódź - C.H. Tesco",
        "phone": "111 222 333",
        "postcode": "91-341",
        "status": true,
        "url": "https://fastwhitecat.com/"
    },
    {
        "address": "Ul. Głogowska 432",
        "city": "Poznań",
        "country": "Polska",
        "description": "<p>Godziny otwarcia:</p><p>Pn-Sb: 07:00 - 21:00,</p><p>Nd: 9:00 - 17:00</p>",
        "id": 7,
        "lat": 52.3542549,
        "long": 16.835237,
        "name": "Poznań - C.H. Auchan Komorniki",
        "phone": "111 222 333",
        "postcode": "60-084",
        "status": true,
        "url": "https://fastwhitecat.com/"
    },
    {
        "address": "Ul. Gen. Hallera 52",
        "city": "Wrocław",
        "country": "Polska",
        "description": "",
        "id": 8,
        "lat": 51.0883421,
        "long": 16.9990936,
        "name": "Wrocław - C.H. Borek",
        "phone": "111 222 333",
        "postcode": "51-421",
        "status": true,
        "url": "https://fastwhitecat.com/"
    },
    {
        "address": "Ul. Bolesława Krzywoustego 126",
        "city": "Wrocław",
        "country": "Polska",
        "description": "",
        "id": 9,
        "lat": 51.1418441,
        "long": 17.0874233,
        "name": "Wrocław - C.H. Korona",
        "phone": "111 222 333",
        "postcode": "51-421",
        "status": true,
        "url": "https://fastwhitecat.com/"
    },
    {
        "address": "Ul. Graniczna 2",
        "city": "Wrocław",
        "country": "Polska",
        "description": "",
        "id": 10,
        "lat": 51.1071934,
        "long": 16.9466579,
        "name": "Wrocław - Fashion Outlet",
        "phone": "111 222 333",
        "postcode": "51-421",
        "status": false,
        "url": "https://fastwhitecat.com/"
    },
    {
        "address": "Ul. Gen. W. Sikorskiego 20",
        "city": "Lublin",
        "country": "Polska",
        "description": "",
        "id": 11,
        "lat": 51.3940594,
        "long": 16.2023979,
        "name": "Lublin - sklep na ulicy W. Sikorskiego",
        "phone": "111 222 333",
        "postcode": "59-300",
        "status": true,
        "url": "https://fastwhitecat.com/"
    }
]